[{"datasetid": "us-zip-code-latitude-and-longitude", "recordid": "ca3928495a5ddbaabfb3be592accffb1b9794aca", "fields": {"city": "Pahoa", "zip": "96778", "dst": 0, "geopoint": [19.494625, -154.9266], "longitude": -154.9266, "state": "HI", "latitude": 19.494625, "timezone": -10}, "geometry": {"type": "Point", "coordinates": [-154.9266, 19.494625]}, "record_timestamp": "2018-02-09T11:33:38.603-05:00"},{"datasetid": "us-zip-code-latitude-and-longitude", "recordid": "48de96b07ccdb2c84d9853a2e65f9efa33f135b4", "fields": {"city": "Hilo", "zip": "96720", "dst": 0, "geopoint": [19.713562, -155.09842], "longitude": -155.09842, "state": "HI", "latitude": 19.713562, "timezone": -10}, "geometry": {"type": "Point", "coordinates": [-155.09842, 19.713562]}, "record_timestamp": "2018-02-09T11:33:38.603-05:00"},{"datasetid": "us-zip-code-latitude-and-longitude", "recordid": "32b4ecb9c714ca964e847056161b25ea901a04a2", "fields": {"city": "Honolulu", "zip": "96849", "dst": 0, "geopoint": [24.859832, -168.021815], "longitude": -168.021815, "state": "HI", "latitude": 24.859832, "timezone": -10}, "geometry": {"type": "Point", "coordinates": [-168.021815, 24.859832]}, "record_timestamp": "2018-02-09T11:33:38.603-05:00"},{"datasetid": "us-zip-code-latitude-and-longitude", "recordid": "512b2cc69971b8a4ec40ac37b488e3a6736a4b8f", "fields": {"city": "Hanamaulu", "zip": "96715", "dst": 0, "geopoint": [21.979991, -159.512392], "longitude": -159.512392, "state": "HI", "latitude": 21.979991, "timezone": -10}, "geometry": {"type": "Point", "coordinates": [-159.512392, 21.979991]}, "record_timestamp": "2018-02-09T11:33:38.603-05:00"},{"datasetid": "us-zip-code-latitude-and-longitude", "recordid": "eadda976c1f7caa1b8ad4ac5716fb7c03b75efaf", "fields": {"city": "Waipahu", "zip": "96797", "dst": 0, "geopoint": [21.403487, -158.01389], "longitude": -158.01389, "state": "HI", "latitude": 21.403487, "timezone": -10}, "geometry": {"type": "Point", "coordinates": [-158.01389, 21.403487]}, "record_timestamp": "2018-02-09T11:33:38.603-05:00"},{"datasetid": "us-zip-code-latitude-and-longitude", "recordid": "8cc954c72c3421ed8e9d11128ff3971e1f7dd194", "fields": {"city": "Honolulu", "zip": "96847", "dst": 0, "geopoint": [24.859832, -168.021815], "longitude": -168.021815, "state": "HI", "latitude": 24.859832, "timezone": -10}, "geometry": {"type": "Point", "coordinates": [-168.021815, 24.859832]}, "record_timestamp": "2018-02-09T11:33:38.603-05:00"},{"datasetid": "us-zip-code-latitude-and-longitude", "recordid": "1a4680cc97262a4ca9d9d4530c70f1664142daf1", "fields": {"city": "Honolulu", "zip": "96843", "dst": 0, "geopoint": [24.859832, -168.021815], "longitude": -168.021815, "state": "HI", "latitude": 24.859832, "timezone": -10}, "geometry": {"type": "Point", "coordinates": [-168.021815, 24.859832]}, "record_timestamp": "2018-02-09T11:33:38.603-05:00"},{"datasetid": "us-zip-code-latitude-and-longitude", "recordid": "9d5a0e1870796559783f26d9c253e2924002f019", "fields": {"city": "Makaweli", "zip": "96769", "dst": 0, "geopoint": [21.946244, -159.65981], "longitude": -159.65981, "state": "HI", "latitude": 21.946244, "timezone": -10}, "geometry": {"type": "Point", "coordinates": [-159.65981, 21.946244]}, "record_timestamp": "2018-02-09T11:33:38.603-05:00"},{"datasetid": "us-zip-code-latitude-and-longitude", "recordid": "249dbe3ab9fb6f971a0cf5fb202386e79b1fad97", "fields": {"city": "Wheeler Army Airfield", "zip": "96854", "dst": 0, "geopoint": [24.859832, -168.021815], "longitude": -168.021815, "state": "HI", "latitude": 24.859832, "timezone": -10}, "geometry": {"type": "Point", "coordinates": [-168.021815, 24.859832]}, "record_timestamp": "2018-02-09T11:33:38.603-05:00"},{"datasetid": "us-zip-code-latitude-and-longitude", "recordid": "21279987f9b541d47ecac228cf9f216801a5fb67", "fields": {"city": "Honolulu", "zip": "96810", "dst": 0, "geopoint": [24.859832, -168.021815], "longitude": -168.021815, "state": "HI", "latitude": 24.859832, "timezone": -10}, "geometry": {"type": "Point", "coordinates": [-168.021815, 24.859832]}, "record_timestamp": "2018-02-09T11:33:38.603-05:00"},{"datasetid": "us-zip-code-latitude-and-longitude", "recordid": "3dc99459fe2400d4bd85bdd31be5d1cfa3ab7eb7", "fields": {"city": "Maunaloa", "zip": "96770", "dst": 0, "geopoint": [21.15058, -157.1977], "longitude": -157.1977, "state": "HI", "latitude": 21.15058, "timezone": -10}, "geometry": {"type": "Point", "coordinates": [-157.1977, 21.15058]}, "record_timestamp": "2018-02-09T11:33:38.603-05:00"},{"datasetid": "us-zip-code-latitude-and-longitude", "recordid": "0892f5b6b40169cb3dc7e5c3af12103189b43e1d", "fields": {"city": "Waialua", "zip": "96791", "dst": 0, "geopoint": [21.572131, -158.13489], "longitude": -158.13489, "state": "HI", "latitude": 21.572131, "timezone": -10}, "geometry": {"type": "Point", "coordinates": [-158.13489, 21.572131]}, "record_timestamp": "2018-02-09T11:33:38.603-05:00"},{"datasetid": "us-zip-code-latitude-and-longitude", "recordid": "4f6446fea4a1957b7fbb849cc741751541084ad2", "fields": {"city": "Anahola", "zip": "96703", "dst": 0, "geopoint": [22.148133, -159.31765], "longitude": -159.31765, "state": "HI", "latitude": 22.148133, "timezone": -10}, "geometry": {"type": "Point", "coordinates": [-159.31765, 22.148133]}, "record_timestamp": "2018-02-09T11:33:38.603-05:00"},{"datasetid": "us-zip-code-latitude-and-longitude", "recordid": "2d058b690aa2246af10d9911e9f48ab9536159c1", "fields": {"city": "Honolulu", "zip": "96815", "dst": 0, "geopoint": [21.2782, -157.82199], "longitude": -157.82199, "state": "HI", "latitude": 21.2782, "timezone": -10}, "geometry": {"type": "Point", "coordinates": [-157.82199, 21.2782]}, "record_timestamp": "2018-02-09T11:33:38.603-05:00"},{"datasetid": "us-zip-code-latitude-and-longitude", "recordid": "b15acc4e26c7ad5bc706177aa88ea931ffad45be", "fields": {"city": "Koloa", "zip": "96756", "dst": 0, "geopoint": [21.910013, -159.48044], "longitude": -159.48044, "state": "HI", "latitude": 21.910013, "timezone": -10}, "geometry": {"type": "Point", "coordinates": [-159.48044, 21.910013]}, "record_timestamp": "2018-02-09T11:33:38.603-05:00"},{"datasetid": "us-zip-code-latitude-and-longitude", "recordid": "81a4c6c6353b69a0b01143709a76cf248bb30a02", "fields": {"city": "Waimea", "zip": "96796", "dst": 0, "geopoint": [21.997746, -159.7187], "longitude": -159.7187, "state": "HI", "latitude": 21.997746, "timezone": -10}, "geometry": {"type": "Point", "coordinates": [-159.7187, 21.997746]}, "record_timestamp": "2018-02-09T11:33:38.603-05:00"},{"datasetid": "us-zip-code-latitude-and-longitude", "recordid": "c3b77d006e1e060521fd76327d90fa913c1b1286", "fields": {"city": "Kunia", "zip": "96759", "dst": 0, "geopoint": [21.4603, -158.06446], "longitude": -158.06446, "state": "HI", "latitude": 21.4603, "timezone": -10}, "geometry": {"type": "Point", "coordinates": [-158.06446, 21.4603]}, "record_timestamp": "2018-02-09T11:33:38.603-05:00"},{"datasetid": "us-zip-code-latitude-and-longitude", "recordid": "83f6a168673283a41d1eb18daa16cb755d04a231", "fields": {"city": "Kalaupapa", "zip": "96742", "dst": 0, "geopoint": [21.191665, -156.9818], "longitude": -156.9818, "state": "HI", "latitude": 21.191665, "timezone": -10}, "geometry": {"type": "Point", "coordinates": [-156.9818, 21.191665]}, "record_timestamp": "2018-02-09T11:33:38.603-05:00"},{"datasetid": "us-zip-code-latitude-and-longitude", "recordid": "644a3fae99f632ecd951af63463e411f7f17ba39", "fields": {"city": "Kihei", "zip": "96753", "dst": 0, "geopoint": [20.771418, -156.45769], "longitude": -156.45769, "state": "HI", "latitude": 20.771418, "timezone": -10}, "geometry": {"type": "Point", "coordinates": [-156.45769, 20.771418]}, "record_timestamp": "2018-02-09T11:33:38.603-05:00"},{"datasetid": "us-zip-code-latitude-and-longitude", "recordid": "daca0de6182bfcfbed3093e461b799d3c3cb4903", "fields": {"city": "M C B H Kaneohe Bay", "zip": "96863", "dst": 0, "geopoint": [21.439867, -157.74772], "longitude": -157.74772, "state": "HI", "latitude": 21.439867, "timezone": -10}, "geometry": {"type": "Point", "coordinates": [-157.74772, 21.439867]}, "record_timestamp": "2018-02-09T11:33:38.603-05:00"},{"datasetid": "us-zip-code-latitude-and-longitude", "recordid": "c85b593e9467fd78c3b1fe8b0db4d5314292f493", "fields": {"city": "Kekaha", "zip": "96752", "dst": 0, "geopoint": [21.97313, -159.71766], "longitude": -159.71766, "state": "HI", "latitude": 21.97313, "timezone": -10}, "geometry": {"type": "Point", "coordinates": [-159.71766, 21.97313]}, "record_timestamp": "2018-02-09T11:33:38.603-05:00"},{"datasetid": "us-zip-code-latitude-and-longitude", "recordid": "2805e6eabb94b3187e9658cf5e4cad64ff353a12", "fields": {"city": "Ookala", "zip": "96774", "dst": 0, "geopoint": [19.996769, -155.31153], "longitude": -155.31153, "state": "HI", "latitude": 19.996769, "timezone": -10}, "geometry": {"type": "Point", "coordinates": [-155.31153, 19.996769]}, "record_timestamp": "2018-02-09T11:33:38.603-05:00"},{"datasetid": "us-zip-code-latitude-and-longitude", "recordid": "b462d300312229c84ec4c1287ae6fd5ee03ed494", "fields": {"city": "Honolulu", "zip": "96805", "dst": 0, "geopoint": [24.859832, -168.021815], "longitude": -168.021815, "state": "HI", "latitude": 24.859832, "timezone": -10}, "geometry": {"type": "Point", "coordinates": [-168.021815, 24.859832]}, "record_timestamp": "2018-02-09T11:33:38.603-05:00"},{"datasetid": "us-zip-code-latitude-and-longitude", "recordid": "493f0d5e38fb816a83185267519780b6d1eae6c1", "fields": {"city": "Camp H M Smith", "zip": "96861", "dst": 0, "geopoint": [24.859832, -168.021815], "longitude": -168.021815, "state": "HI", "latitude": 24.859832, "timezone": -10}, "geometry": {"type": "Point", "coordinates": [-168.021815, 24.859832]}, "record_timestamp": "2018-02-09T11:33:38.603-05:00"},{"datasetid": "us-zip-code-latitude-and-longitude", "recordid": "b25bef9567eb9c6b95df4039488da1f5b4b29e82", "fields": {"city": "Haleiwa", "zip": "96712", "dst": 0, "geopoint": [21.630633, -158.07448], "longitude": -158.07448, "state": "HI", "latitude": 21.630633, "timezone": -10}, "geometry": {"type": "Point", "coordinates": [-158.07448, 21.630633]}, "record_timestamp": "2018-02-09T11:33:38.603-05:00"},{"datasetid": "us-zip-code-latitude-and-longitude", "recordid": "6b186fdc28789603e65f383451cf9ac5acb56a3f", "fields": {"city": "Ninole", "zip": "96773", "dst": 0, "geopoint": [19.942301, -155.18112], "longitude": -155.18112, "state": "HI", "latitude": 19.942301, "timezone": -10}, "geometry": {"type": "Point", "coordinates": [-155.18112, 19.942301]}, "record_timestamp": "2018-02-09T11:33:38.603-05:00"},{"datasetid": "us-zip-code-latitude-and-longitude", "recordid": "2a1acf4ed296c501521f3b546fdcc2874dfb5160", "fields": {"city": "Honolulu", "zip": "96806", "dst": 0, "geopoint": [24.859832, -168.021815], "longitude": -168.021815, "state": "HI", "latitude": 24.859832, "timezone": -10}, "geometry": {"type": "Point", "coordinates": [-168.021815, 24.859832]}, "record_timestamp": "2018-02-09T11:33:38.603-05:00"},{"datasetid": "us-zip-code-latitude-and-longitude", "recordid": "4dc7f59842a38fd2c64a7fd45c61d52b040ac872", "fields": {"city": "Honolulu", "zip": "96820", "dst": 0, "geopoint": [24.859832, -168.021815], "longitude": -168.021815, "state": "HI", "latitude": 24.859832, "timezone": -10}, "geometry": {"type": "Point", "coordinates": [-168.021815, 24.859832]}, "record_timestamp": "2018-02-09T11:33:38.603-05:00"},{"datasetid": "us-zip-code-latitude-and-longitude", "recordid": "54b9b667ee44e0087256bd7c0cb79d8876477ac8", "fields": {"city": "Pukalani", "zip": "96788", "dst": 0, "geopoint": [20.855864, -156.325923], "longitude": -156.325923, "state": "HI", "latitude": 20.855864, "timezone": -10}, "geometry": {"type": "Point", "coordinates": [-156.325923, 20.855864]}, "record_timestamp": "2018-02-09T11:33:38.603-05:00"},{"datasetid": "us-zip-code-latitude-and-longitude", "recordid": "aa5319526fc723b052c30303ed858c9e84ac1eed", "fields": {"city": "Honolulu", "zip": "96809", "dst": 0, "geopoint": [24.859832, -168.021815], "longitude": -168.021815, "state": "HI", "latitude": 24.859832, "timezone": -10}, "geometry": {"type": "Point", "coordinates": [-168.021815, 24.859832]}, "record_timestamp": "2018-02-09T11:33:38.603-05:00"},{"datasetid": "us-zip-code-latitude-and-longitude", "recordid": "3af3c62fd02b87490873c1555e13fc5a8eee4a6f", "fields": {"city": "Honolulu", "zip": "96837", "dst": 0, "geopoint": [24.859832, -168.021815], "longitude": -168.021815, "state": "HI", "latitude": 24.859832, "timezone": -10}, "geometry": {"type": "Point", "coordinates": [-168.021815, 24.859832]}, "record_timestamp": "2018-02-09T11:33:38.603-05:00"},{"datasetid": "us-zip-code-latitude-and-longitude", "recordid": "e50b83d16151beb6ca26b286ca22fa42f20c0df2", "fields": {"city": "Kamuela", "zip": "96743", "dst": 0, "geopoint": [20.040191, -155.69999], "longitude": -155.69999, "state": "HI", "latitude": 20.040191, "timezone": -10}, "geometry": {"type": "Point", "coordinates": [-155.69999, 20.040191]}, "record_timestamp": "2018-02-09T11:33:38.603-05:00"},{"datasetid": "us-zip-code-latitude-and-longitude", "recordid": "6da7721303393d6b717370ebfeac39bb174ed98d", "fields": {"city": "Kurtistown", "zip": "96760", "dst": 0, "geopoint": [19.5604, -155.05686], "longitude": -155.05686, "state": "HI", "latitude": 19.5604, "timezone": -10}, "geometry": {"type": "Point", "coordinates": [-155.05686, 19.5604]}, "record_timestamp": "2018-02-09T11:33:38.603-05:00"},{"datasetid": "us-zip-code-latitude-and-longitude", "recordid": "344b018a41cf2c07d72f8ed9937fc32d0fb7d830", "fields": {"city": "Naalehu", "zip": "96772", "dst": 0, "geopoint": [19.110687, -155.58738], "longitude": -155.58738, "state": "HI", "latitude": 19.110687, "timezone": -10}, "geometry": {"type": "Point", "coordinates": [-155.58738, 19.110687]}, "record_timestamp": "2018-02-09T11:33:38.603-05:00"},{"datasetid": "us-zip-code-latitude-and-longitude", "recordid": "f7fc4a8310dc9a9320aca0f8db122a405b0a9865", "fields": {"city": "Hawaii National Park", "zip": "96718", "dst": 0, "geopoint": [19.435739, -155.26648], "longitude": -155.26648, "state": "HI", "latitude": 19.435739, "timezone": -10}, "geometry": {"type": "Point", "coordinates": [-155.26648, 19.435739]}, "record_timestamp": "2018-02-09T11:33:38.603-05:00"},{"datasetid": "us-zip-code-latitude-and-longitude", "recordid": "18dea80abf2ce7c1e331ffd27c07acd3a53b32d2", "fields": {"city": "Lawai", "zip": "96765", "dst": 0, "geopoint": [21.930922, -159.499342], "longitude": -159.499342, "state": "HI", "latitude": 21.930922, "timezone": -10}, "geometry": {"type": "Point", "coordinates": [-159.499342, 21.930922]}, "record_timestamp": "2018-02-09T11:33:38.603-05:00"},{"datasetid": "us-zip-code-latitude-and-longitude", "recordid": "6e7bb85297af300d1e7818bdf47bdaf5c43d4f54", "fields": {"city": "Hanalei", "zip": "96714", "dst": 0, "geopoint": [22.208401, -159.4896], "longitude": -159.4896, "state": "HI", "latitude": 22.208401, "timezone": -10}, "geometry": {"type": "Point", "coordinates": [-159.4896, 22.208401]}, "record_timestamp": "2018-02-09T11:33:38.603-05:00"},{"datasetid": "us-zip-code-latitude-and-longitude", "recordid": "87286560ce60153917cd2752181a56b71058312a", "fields": {"city": "Honolulu", "zip": "96846", "dst": 0, "geopoint": [24.859832, -168.021815], "longitude": -168.021815, "state": "HI", "latitude": 24.859832, "timezone": -10}, "geometry": {"type": "Point", "coordinates": [-168.021815, 24.859832]}, "record_timestamp": "2018-02-09T11:33:38.603-05:00"},{"datasetid": "us-zip-code-latitude-and-longitude", "recordid": "35adf748913f95a69ec0b43605bdd513e03f0fb5", "fields": {"city": "Pearl Harbor", "zip": "96860", "dst": 0, "geopoint": [24.859832, -168.021815], "longitude": -168.021815, "state": "HI", "latitude": 24.859832, "timezone": -10}, "geometry": {"type": "Point", "coordinates": [-168.021815, 24.859832]}, "record_timestamp": "2018-02-09T11:33:38.603-05:00"},{"datasetid": "us-zip-code-latitude-and-longitude", "recordid": "2f05802261b2e30f68358d8133870059506c22fa", "fields": {"city": "Waimanalo", "zip": "96795", "dst": 0, "geopoint": [21.33743, -157.70599], "longitude": -157.70599, "state": "HI", "latitude": 21.33743, "timezone": -10}, "geometry": {"type": "Point", "coordinates": [-157.70599, 21.33743]}, "record_timestamp": "2018-02-09T11:33:38.603-05:00"},{"datasetid": "us-zip-code-latitude-and-longitude", "recordid": "77eb709e904a0edbfd12765aa2eb58a91d5ea156", "fields": {"city": "Kealakekua", "zip": "96750", "dst": 0, "geopoint": [19.526845, -155.9215], "longitude": -155.9215, "state": "HI", "latitude": 19.526845, "timezone": -10}, "geometry": {"type": "Point", "coordinates": [-155.9215, 19.526845]}, "record_timestamp": "2018-02-09T11:33:38.603-05:00"},{"datasetid": "us-zip-code-latitude-and-longitude", "recordid": "bcb4e26f014f6caa71b3567bb03c52ec34a33536", "fields": {"city": "Honolulu", "zip": "96823", "dst": 0, "geopoint": [24.859832, -168.021815], "longitude": -168.021815, "state": "HI", "latitude": 24.859832, "timezone": -10}, "geometry": {"type": "Point", "coordinates": [-168.021815, 24.859832]}, "record_timestamp": "2018-02-09T11:33:38.603-05:00"},{"datasetid": "us-zip-code-latitude-and-longitude", "recordid": "f08c380ef7b52849906d1b9681106545c1baf42c", "fields": {"city": "Honolulu", "zip": "96836", "dst": 0, "geopoint": [24.859832, -168.021815], "longitude": -168.021815, "state": "HI", "latitude": 24.859832, "timezone": -10}, "geometry": {"type": "Point", "coordinates": [-168.021815, 24.859832]}, "record_timestamp": "2018-02-09T11:33:38.603-05:00"},{"datasetid": "us-zip-code-latitude-and-longitude", "recordid": "d520b7ac135cf8c968ce87d979b9e071d4bd730d", "fields": {"city": "Kapaa", "zip": "96746", "dst": 0, "geopoint": [22.077472, -159.34463], "longitude": -159.34463, "state": "HI", "latitude": 22.077472, "timezone": -10}, "geometry": {"type": "Point", "coordinates": [-159.34463, 22.077472]}, "record_timestamp": "2018-02-09T11:33:38.603-05:00"},{"datasetid": "us-zip-code-latitude-and-longitude", "recordid": "8ca109ac9a18f73a17d58bf8845c419471157f75", "fields": {"city": "Honolulu", "zip": "96804", "dst": 0, "geopoint": [24.859832, -168.021815], "longitude": -168.021815, "state": "HI", "latitude": 24.859832, "timezone": -10}, "geometry": {"type": "Point", "coordinates": [-168.021815, 24.859832]}, "record_timestamp": "2018-02-09T11:33:38.603-05:00"},{"datasetid": "us-zip-code-latitude-and-longitude", "recordid": "797f1ecd46dcaf2c90fc4003cac09be7bdadc44d", "fields": {"city": "Honolulu", "zip": "96803", "dst": 0, "geopoint": [24.859832, -168.021815], "longitude": -168.021815, "state": "HI", "latitude": 24.859832, "timezone": -10}, "geometry": {"type": "Point", "coordinates": [-168.021815, 24.859832]}, "record_timestamp": "2018-02-09T11:33:38.603-05:00"},{"datasetid": "us-zip-code-latitude-and-longitude", "recordid": "bcc878f5ca09f8d3f5059da5c057b37f7b01f2cb", "fields": {"city": "Kaumakani", "zip": "96747", "dst": 0, "geopoint": [21.920292, -159.62428], "longitude": -159.62428, "state": "HI", "latitude": 21.920292, "timezone": -10}, "geometry": {"type": "Point", "coordinates": [-159.62428, 21.920292]}, "record_timestamp": "2018-02-09T11:33:38.603-05:00"},{"datasetid": "us-zip-code-latitude-and-longitude", "recordid": "af538fd64130ab4b9fa066b9e3836a09b34b3fda", "fields": {"city": "Papaaloa", "zip": "96780", "dst": 0, "geopoint": [19.946758, -155.2086], "longitude": -155.2086, "state": "HI", "latitude": 19.946758, "timezone": -10}, "geometry": {"type": "Point", "coordinates": [-155.2086, 19.946758]}, "record_timestamp": "2018-02-09T11:33:38.603-05:00"},{"datasetid": "us-zip-code-latitude-and-longitude", "recordid": "d7a527e1a5e00e04cc33d11b8df8b71c7b414614", "fields": {"city": "Honolulu", "zip": "96801", "dst": 0, "geopoint": [24.859832, -168.021815], "longitude": -168.021815, "state": "HI", "latitude": 24.859832, "timezone": -10}, "geometry": {"type": "Point", "coordinates": [-168.021815, 24.859832]}, "record_timestamp": "2018-02-09T11:33:38.603-05:00"},{"datasetid": "us-zip-code-latitude-and-longitude", "recordid": "9a7acaf3fe7544eeca093fe0de28a2968051dcc5", "fields": {"city": "Paia", "zip": "96779", "dst": 0, "geopoint": [20.906999, -156.38202], "longitude": -156.38202, "state": "HI", "latitude": 20.906999, "timezone": -10}, "geometry": {"type": "Point", "coordinates": [-156.38202, 20.906999]}, "record_timestamp": "2018-02-09T11:33:38.603-05:00"},{"datasetid": "us-zip-code-latitude-and-longitude", "recordid": "03cf6385d6e6a9f490f412b468a687ae3cb613c6", "fields": {"city": "Honolulu", "zip": "96830", "dst": 0, "geopoint": [24.859832, -168.021815], "longitude": -168.021815, "state": "HI", "latitude": 24.859832, "timezone": -10}, "geometry": {"type": "Point", "coordinates": [-168.021815, 24.859832]}, "record_timestamp": "2018-02-09T11:33:38.603-05:00"},{"datasetid": "us-zip-code-latitude-and-longitude", "recordid": "76234822ef99ccf7904d2930a41a5be38f84a451", "fields": {"city": "Honolulu", "zip": "96844", "dst": 0, "geopoint": [24.859832, -168.021815], "longitude": -168.021815, "state": "HI", "latitude": 24.859832, "timezone": -10}, "geometry": {"type": "Point", "coordinates": [-168.021815, 24.859832]}, "record_timestamp": "2018-02-09T11:33:38.603-05:00"},{"datasetid": "us-zip-code-latitude-and-longitude", "recordid": "ff7648f9d7e563c7d4a2a58c12fa8d1ceaa87732", "fields": {"city": "Hawaiian Ocean View", "zip": "96373", "dst": 0, "geopoint": [19.112099, -155.798594], "longitude": -155.798594, "state": "HI", "latitude": 19.112099, "timezone": -10}, "geometry": {"type": "Point", "coordinates": [-155.798594, 19.112099]}, "record_timestamp": "2018-02-09T11:33:38.603-05:00"},{"datasetid": "us-zip-code-latitude-and-longitude", "recordid": "bf107358c762dc9f5828a13d12d26bb1e79ab141", "fields": {"city": "Kalaheo", "zip": "96741", "dst": 0, "geopoint": [21.999721, -159.4776], "longitude": -159.4776, "state": "HI", "latitude": 21.999721, "timezone": -10}, "geometry": {"type": "Point", "coordinates": [-159.4776, 21.999721]}, "record_timestamp": "2018-02-09T11:33:38.603-05:00"},{"datasetid": "us-zip-code-latitude-and-longitude", "recordid": "75caf7dee8a948cdd3113dd6f872e94dccc079e7", "fields": {"city": "Aiea", "zip": "96701", "dst": 0, "geopoint": [21.389167, -157.93091], "longitude": -157.93091, "state": "HI", "latitude": 21.389167, "timezone": -10}, "geometry": {"type": "Point", "coordinates": [-157.93091, 21.389167]}, "record_timestamp": "2018-02-09T11:33:38.603-05:00"},{"datasetid": "us-zip-code-latitude-and-longitude", "recordid": "5ed621f88cf70b1e41efaa2b2015f76c978846a8", "fields": {"city": "Kilauea", "zip": "96754", "dst": 0, "geopoint": [22.212733, -159.40787], "longitude": -159.40787, "state": "HI", "latitude": 22.212733, "timezone": -10}, "geometry": {"type": "Point", "coordinates": [-159.40787, 22.212733]}, "record_timestamp": "2018-02-09T11:33:38.603-05:00"},{"datasetid": "us-zip-code-latitude-and-longitude", "recordid": "adbfadf263a31ef38c29a72eda2a0b046e96bb8c", "fields": {"city": "Pahala", "zip": "96777", "dst": 0, "geopoint": [19.226749, -155.49217], "longitude": -155.49217, "state": "HI", "latitude": 19.226749, "timezone": -10}, "geometry": {"type": "Point", "coordinates": [-155.49217, 19.226749]}, "record_timestamp": "2018-02-09T11:33:38.603-05:00"},{"datasetid": "us-zip-code-latitude-and-longitude", "recordid": "ca00aa63ddf236755189435931e50fbd0b3d6ce5", "fields": {"city": "Hauula", "zip": "96717", "dst": 0, "geopoint": [21.60625, -157.90949], "longitude": -157.90949, "state": "HI", "latitude": 21.60625, "timezone": -10}, "geometry": {"type": "Point", "coordinates": [-157.90949, 21.60625]}, "record_timestamp": "2018-02-09T11:33:38.603-05:00"},{"datasetid": "us-zip-code-latitude-and-longitude", "recordid": "5efd801a84e06c5d905515d4dc119dec6e029268", "fields": {"city": "Honolulu", "zip": "96808", "dst": 0, "geopoint": [24.859832, -168.021815], "longitude": -168.021815, "state": "HI", "latitude": 24.859832, "timezone": -10}, "geometry": {"type": "Point", "coordinates": [-168.021815, 24.859832]}, "record_timestamp": "2018-02-09T11:33:38.603-05:00"},{"datasetid": "us-zip-code-latitude-and-longitude", "recordid": "ec43467bb0193d3cd3f4b21d9f9fc5567259d0d2", "fields": {"city": "Ocean View", "zip": "96737", "dst": 0, "geopoint": [19.101978, -155.76114], "longitude": -155.76114, "state": "HI", "latitude": 19.101978, "timezone": -10}, "geometry": {"type": "Point", "coordinates": [-155.76114, 19.101978]}, "record_timestamp": "2018-02-09T11:33:38.603-05:00"},{"datasetid": "us-zip-code-latitude-and-longitude", "recordid": "e689e56a0cd448cf830e4abf0b0a8e8b81f501c2", "fields": {"city": "Honolulu", "zip": "96818", "dst": 0, "geopoint": [21.36425, -157.96316], "longitude": -157.96316, "state": "HI", "latitude": 21.36425, "timezone": -10}, "geometry": {"type": "Point", "coordinates": [-157.96316, 21.36425]}, "record_timestamp": "2018-02-09T11:33:38.603-05:00"},{"datasetid": "us-zip-code-latitude-and-longitude", "recordid": "c93aebbd5839e8681e385536c4b6bf5c20e10866", "fields": {"city": "Waianae", "zip": "96792", "dst": 0, "geopoint": [21.434246, -158.17092], "longitude": -158.17092, "state": "HI", "latitude": 21.434246, "timezone": -10}, "geometry": {"type": "Point", "coordinates": [-158.17092, 21.434246]}, "record_timestamp": "2018-02-09T11:33:38.603-05:00"},{"datasetid": "us-zip-code-latitude-and-longitude", "recordid": "9492358fa5dc436eac1019f241f461ad7322308c", "fields": {"city": "Paauilo", "zip": "96776", "dst": 0, "geopoint": [20.022513, -155.37514], "longitude": -155.37514, "state": "HI", "latitude": 20.022513, "timezone": -10}, "geometry": {"type": "Point", "coordinates": [-155.37514, 20.022513]}, "record_timestamp": "2018-02-09T11:33:38.603-05:00"},{"datasetid": "us-zip-code-latitude-and-longitude", "recordid": "19bdaa74310b4b08a8d96ef7f567bc309c1a0f3a", "fields": {"city": "Barbers Point N A S", "zip": "96862", "dst": 0, "geopoint": [21.3017, -158.08174], "longitude": -158.08174, "state": "HI", "latitude": 21.3017, "timezone": -10}, "geometry": {"type": "Point", "coordinates": [-158.08174, 21.3017]}, "record_timestamp": "2018-02-09T11:33:38.603-05:00"},{"datasetid": "us-zip-code-latitude-and-longitude", "recordid": "507d9e2701472058426b61c200f42ddc9f80ee1e", "fields": {"city": "Eleele", "zip": "96705", "dst": 0, "geopoint": [21.910767, -159.58222], "longitude": -159.58222, "state": "HI", "latitude": 21.910767, "timezone": -10}, "geometry": {"type": "Point", "coordinates": [-159.58222, 21.910767]}, "record_timestamp": "2018-02-09T11:33:38.603-05:00"},{"datasetid": "us-zip-code-latitude-and-longitude", "recordid": "418e88b47f65d44769f08323efd6c82f2075a70e", "fields": {"city": "Honolulu", "zip": "96842", "dst": 0, "geopoint": [24.859832, -168.021815], "longitude": -168.021815, "state": "HI", "latitude": 24.859832, "timezone": -10}, "geometry": {"type": "Point", "coordinates": [-168.021815, 24.859832]}, "record_timestamp": "2018-02-09T11:33:38.603-05:00"},{"datasetid": "us-zip-code-latitude-and-longitude", "recordid": "a7b804f1295f6a7f0b107a95a048aabd7b4dac31", "fields": {"city": "Kapolei", "zip": "96709", "dst": 0, "geopoint": [23.573339, -164.701172], "longitude": -164.701172, "state": "HI", "latitude": 23.573339, "timezone": -10}, "geometry": {"type": "Point", "coordinates": [-164.701172, 23.573339]}, "record_timestamp": "2018-02-09T11:33:38.603-05:00"},{"datasetid": "us-zip-code-latitude-and-longitude", "recordid": "3712840b8ae5f7bb5356428debb8f0fae03df8db", "fields": {"city": "Lahaina", "zip": "96761", "dst": 0, "geopoint": [20.913335, -156.65765], "longitude": -156.65765, "state": "HI", "latitude": 20.913335, "timezone": -10}, "geometry": {"type": "Point", "coordinates": [-156.65765, 20.913335]}, "record_timestamp": "2018-02-09T11:33:38.603-05:00"},{"datasetid": "us-zip-code-latitude-and-longitude", "recordid": "d3b006552eda30397de648798270c7272ea66e0e", "fields": {"city": "Honolulu", "zip": "96839", "dst": 0, "geopoint": [24.859832, -168.021815], "longitude": -168.021815, "state": "HI", "latitude": 24.859832, "timezone": -10}, "geometry": {"type": "Point", "coordinates": [-168.021815, 24.859832]}, "record_timestamp": "2018-02-09T11:33:38.603-05:00"},{"datasetid": "us-zip-code-latitude-and-longitude", "recordid": "6c9c7ce3e5abab1020cb8d93087445f8b64953e2", "fields": {"city": "Kula", "zip": "96790", "dst": 0, "geopoint": [20.724391, -156.34031], "longitude": -156.34031, "state": "HI", "latitude": 20.724391, "timezone": -10}, "geometry": {"type": "Point", "coordinates": [-156.34031, 20.724391]}, "record_timestamp": "2018-02-09T11:33:38.603-05:00"},{"datasetid": "us-zip-code-latitude-and-longitude", "recordid": "81aeaeffe5e8624d640742e72660d35df44f44ea", "fields": {"city": "Honolulu", "zip": "96826", "dst": 0, "geopoint": [21.2951, -157.83066], "longitude": -157.83066, "state": "HI", "latitude": 21.2951, "timezone": -10}, "geometry": {"type": "Point", "coordinates": [-157.83066, 21.2951]}, "record_timestamp": "2018-02-09T11:33:38.603-05:00"},{"datasetid": "us-zip-code-latitude-and-longitude", "recordid": "a5cfb751d5029bed25edc3d360a7525d971ca5fa", "fields": {"city": "Kaaawa", "zip": "96730", "dst": 0, "geopoint": [21.554467, -157.85108], "longitude": -157.85108, "state": "HI", "latitude": 21.554467, "timezone": -10}, "geometry": {"type": "Point", "coordinates": [-157.85108, 21.554467]}, "record_timestamp": "2018-02-09T11:33:38.603-05:00"},{"datasetid": "us-zip-code-latitude-and-longitude", "recordid": "64a5c668dda8c0aec58229113fcc1436d13bb7c7", "fields": {"city": "Honolulu", "zip": "96813", "dst": 0, "geopoint": [21.313033, -157.85615], "longitude": -157.85615, "state": "HI", "latitude": 21.313033, "timezone": -10}, "geometry": {"type": "Point", "coordinates": [-157.85615, 21.313033]}, "record_timestamp": "2018-02-09T11:33:38.603-05:00"},{"datasetid": "us-zip-code-latitude-and-longitude", "recordid": "6bd9a7d11b71b655982d0c539c5ef8133ee3ca38", "fields": {"city": "Honomu", "zip": "96728", "dst": 0, "geopoint": [19.866007, -155.12172], "longitude": -155.12172, "state": "HI", "latitude": 19.866007, "timezone": -10}, "geometry": {"type": "Point", "coordinates": [-155.12172, 19.866007]}, "record_timestamp": "2018-02-09T11:33:38.603-05:00"},{"datasetid": "us-zip-code-latitude-and-longitude", "recordid": "81bd46033821f6b193a345477718a7abf67391f8", "fields": {"city": "Honolulu", "zip": "96802", "dst": 0, "geopoint": [24.859832, -168.021815], "longitude": -168.021815, "state": "HI", "latitude": 24.859832, "timezone": -10}, "geometry": {"type": "Point", "coordinates": [-168.021815, 24.859832]}, "record_timestamp": "2018-02-09T11:33:38.603-05:00"},{"datasetid": "us-zip-code-latitude-and-longitude", "recordid": "3d68baa4dbcfaa585664e34138e0b1fb6b89a1e5", "fields": {"city": "Honolulu", "zip": "96822", "dst": 0, "geopoint": [21.31275, -157.82195], "longitude": -157.82195, "state": "HI", "latitude": 21.31275, "timezone": -10}, "geometry": {"type": "Point", "coordinates": [-157.82195, 21.31275]}, "record_timestamp": "2018-02-09T11:33:38.603-05:00"},{"datasetid": "us-zip-code-latitude-and-longitude", "recordid": "e2831f3d132545534acac591759293340acc03b6", "fields": {"city": "Pearl City", "zip": "96782", "dst": 0, "geopoint": [21.408333, -157.9669], "longitude": -157.9669, "state": "HI", "latitude": 21.408333, "timezone": -10}, "geometry": {"type": "Point", "coordinates": [-157.9669, 21.408333]}, "record_timestamp": "2018-02-09T11:33:38.603-05:00"},{"datasetid": "us-zip-code-latitude-and-longitude", "recordid": "c68cc30e6f21275e5fd4bddc40c06533ca087898", "fields": {"city": "Kailua Kona", "zip": "96740", "dst": 0, "geopoint": [19.675386, -155.97588], "longitude": -155.97588, "state": "HI", "latitude": 19.675386, "timezone": -10}, "geometry": {"type": "Point", "coordinates": [-155.97588, 19.675386]}, "record_timestamp": "2018-02-09T11:33:38.603-05:00"},{"datasetid": "us-zip-code-latitude-and-longitude", "recordid": "7c77b27a9d81861e27cd9abd8c83a25468421e13", "fields": {"city": "Kapaau", "zip": "96755", "dst": 0, "geopoint": [20.222668, -155.78664], "longitude": -155.78664, "state": "HI", "latitude": 20.222668, "timezone": -10}, "geometry": {"type": "Point", "coordinates": [-155.78664, 20.222668]}, "record_timestamp": "2018-02-09T11:33:38.603-05:00"},{"datasetid": "us-zip-code-latitude-and-longitude", "recordid": "f0b7388c29eeb2ce90c48c8813aa4012b7e8b273", "fields": {"city": "Honolulu", "zip": "96828", "dst": 0, "geopoint": [24.859832, -168.021815], "longitude": -168.021815, "state": "HI", "latitude": 24.859832, "timezone": -10}, "geometry": {"type": "Point", "coordinates": [-168.021815, 24.859832]}, "record_timestamp": "2018-02-09T11:33:38.603-05:00"},{"datasetid": "us-zip-code-latitude-and-longitude", "recordid": "294a74b9a5245b8e1d348add21e6957eda89c8a3", "fields": {"city": "Honolulu", "zip": "96840", "dst": 0, "geopoint": [24.859832, -168.021815], "longitude": -168.021815, "state": "HI", "latitude": 24.859832, "timezone": -10}, "geometry": {"type": "Point", "coordinates": [-168.021815, 24.859832]}, "record_timestamp": "2018-02-09T11:33:38.603-05:00"},{"datasetid": "us-zip-code-latitude-and-longitude", "recordid": "d9bfc2f417e3616c9d66479597bce98f3107d749", "fields": {"city": "Honolulu", "zip": "96817", "dst": 0, "geopoint": [21.3307, -157.85913], "longitude": -157.85913, "state": "HI", "latitude": 21.3307, "timezone": -10}, "geometry": {"type": "Point", "coordinates": [-157.85913, 21.3307]}, "record_timestamp": "2018-02-09T11:33:38.603-05:00"},{"datasetid": "us-zip-code-latitude-and-longitude", "recordid": "f4db03838023d20a29c6d08c3fffcf2ca9f3cdfb", "fields": {"city": "Keaau", "zip": "96749", "dst": 0, "geopoint": [19.625495, -155.01121], "longitude": -155.01121, "state": "HI", "latitude": 19.625495, "timezone": -10}, "geometry": {"type": "Point", "coordinates": [-155.01121, 19.625495]}, "record_timestamp": "2018-02-09T11:33:38.603-05:00"},{"datasetid": "us-zip-code-latitude-and-longitude", "recordid": "2386e39b153f499fdd39f85249ab2f2c776e0c33", "fields": {"city": "Honolulu", "zip": "96845", "dst": 0, "geopoint": [24.859832, -168.021815], "longitude": -168.021815, "state": "HI", "latitude": 24.859832, "timezone": -10}, "geometry": {"type": "Point", "coordinates": [-168.021815, 24.859832]}, "record_timestamp": "2018-02-09T11:33:38.603-05:00"},{"datasetid": "us-zip-code-latitude-and-longitude", "recordid": "5c74e48a669db4bde53ba1319572eb535b4c079f", "fields": {"city": "Volcano", "zip": "96785", "dst": 0, "geopoint": [19.447717, -155.21012], "longitude": -155.21012, "state": "HI", "latitude": 19.447717, "timezone": -10}, "geometry": {"type": "Point", "coordinates": [-155.21012, 19.447717]}, "record_timestamp": "2018-02-09T11:33:38.603-05:00"},{"datasetid": "us-zip-code-latitude-and-longitude", "recordid": "0e9124875ea6f3572d86b893e08718a609152774", "fields": {"city": "Wahiawa", "zip": "96786", "dst": 0, "geopoint": [21.501722, -158.03543], "longitude": -158.03543, "state": "HI", "latitude": 21.501722, "timezone": -10}, "geometry": {"type": "Point", "coordinates": [-158.03543, 21.501722]}, "record_timestamp": "2018-02-09T11:33:38.603-05:00"},{"datasetid": "us-zip-code-latitude-and-longitude", "recordid": "60e49a21f60eab1395327501e15888df78a8d8af", "fields": {"city": "Wake Island", "zip": "96898", "dst": 0, "geopoint": [24.859832, -168.021815], "longitude": -168.021815, "state": "HI", "latitude": 24.859832, "timezone": -10}, "geometry": {"type": "Point", "coordinates": [-168.021815, 24.859832]}, "record_timestamp": "2018-02-09T11:33:38.603-05:00"},{"datasetid": "us-zip-code-latitude-and-longitude", "recordid": "b91bde8a4916d7e5172f4bfb61ed2c27f812cfed", "fields": {"city": "Tripler Army Medical Ctr", "zip": "96859", "dst": 0, "geopoint": [24.859832, -168.021815], "longitude": -168.021815, "state": "HI", "latitude": 24.859832, "timezone": -10}, "geometry": {"type": "Point", "coordinates": [-168.021815, 24.859832]}, "record_timestamp": "2018-02-09T11:33:38.603-05:00"},{"datasetid": "us-zip-code-latitude-and-longitude", "recordid": "e639735f0193129d9810c89fda008cc77b53d864", "fields": {"city": "Hilo", "zip": "96721", "dst": 0, "geopoint": [19.593456, -155.438015], "longitude": -155.438015, "state": "HI", "latitude": 19.593456, "timezone": -10}, "geometry": {"type": "Point", "coordinates": [-155.438015, 19.593456]}, "record_timestamp": "2018-02-09T11:33:38.603-05:00"},{"datasetid": "us-zip-code-latitude-and-longitude", "recordid": "bf94ffe3fd89b4733f2bde830a2ddccd5ae3ba7f", "fields": {"city": "Honolulu", "zip": "96850", "dst": 0, "geopoint": [24.859832, -168.021815], "longitude": -168.021815, "state": "HI", "latitude": 24.859832, "timezone": -10}, "geometry": {"type": "Point", "coordinates": [-168.021815, 24.859832]}, "record_timestamp": "2018-02-09T11:33:38.603-05:00"},{"datasetid": "us-zip-code-latitude-and-longitude", "recordid": "8bedad9356eec615dd81e8bb58bb45818a948e8a", "fields": {"city": "Puunene", "zip": "96784", "dst": 0, "geopoint": [20.866638, -156.646667], "longitude": -156.646667, "state": "HI", "latitude": 20.866638, "timezone": -10}, "geometry": {"type": "Point", "coordinates": [-156.646667, 20.866638]}, "record_timestamp": "2018-02-09T11:33:38.603-05:00"},{"datasetid": "us-zip-code-latitude-and-longitude", "recordid": "2984c1bd248b478610ad5fb48e67fdff1776b949", "fields": {"city": "Lihue", "zip": "96766", "dst": 0, "geopoint": [21.98081, -159.37746], "longitude": -159.37746, "state": "HI", "latitude": 21.98081, "timezone": -10}, "geometry": {"type": "Point", "coordinates": [-159.37746, 21.98081]}, "record_timestamp": "2018-02-09T11:33:38.603-05:00"},{"datasetid": "us-zip-code-latitude-and-longitude", "recordid": "789d0284f8b3f67074e30c2f1c52858aa7b42a44", "fields": {"city": "Wailuku", "zip": "96793", "dst": 0, "geopoint": [20.889294, -156.50497], "longitude": -156.50497, "state": "HI", "latitude": 20.889294, "timezone": -10}, "geometry": {"type": "Point", "coordinates": [-156.50497, 20.889294]}, "record_timestamp": "2018-02-09T11:33:38.603-05:00"},{"datasetid": "us-zip-code-latitude-and-longitude", "recordid": "553e904aea026bca8d4692e2b780dcc506fb4186", "fields": {"city": "Schofield Barracks", "zip": "96857", "dst": 0, "geopoint": [24.859832, -168.021815], "longitude": -168.021815, "state": "HI", "latitude": 24.859832, "timezone": -10}, "geometry": {"type": "Point", "coordinates": [-168.021815, 24.859832]}, "record_timestamp": "2018-02-09T11:33:38.603-05:00"},{"datasetid": "us-zip-code-latitude-and-longitude", "recordid": "569eec1f4aa6f638c460b3220a77889a762c0941", "fields": {"city": "Honolulu", "zip": "96807", "dst": 0, "geopoint": [24.859832, -168.021815], "longitude": -168.021815, "state": "HI", "latitude": 24.859832, "timezone": -10}, "geometry": {"type": "Point", "coordinates": [-168.021815, 24.859832]}, "record_timestamp": "2018-02-09T11:33:38.603-05:00"},{"datasetid": "us-zip-code-latitude-and-longitude", "recordid": "cab5b3a459bbb0aeedf5f3a7ddc8e32a4bae8bc5", "fields": {"city": "Honolulu", "zip": "96835", "dst": 0, "geopoint": [24.859832, -168.021815], "longitude": -168.021815, "state": "HI", "latitude": 24.859832, "timezone": -10}, "geometry": {"type": "Point", "coordinates": [-168.021815, 24.859832]}, "record_timestamp": "2018-02-09T11:33:38.603-05:00"},{"datasetid": "us-zip-code-latitude-and-longitude", "recordid": "23da1cae3ab5996002a5689a474a9b8ab4872686", "fields": {"city": "Laie", "zip": "96762", "dst": 0, "geopoint": [21.6485, -157.92556], "longitude": -157.92556, "state": "HI", "latitude": 21.6485, "timezone": -10}, "geometry": {"type": "Point", "coordinates": [-157.92556, 21.6485]}, "record_timestamp": "2018-02-09T11:33:38.603-05:00"},{"datasetid": "us-zip-code-latitude-and-longitude", "recordid": "598ba25f5f53a3bf0a1a5da9f24e14c43d02e2c2", "fields": {"city": "Lahaina", "zip": "96767", "dst": 0, "geopoint": [20.866638, -156.646667], "longitude": -156.646667, "state": "HI", "latitude": 20.866638, "timezone": -10}, "geometry": {"type": "Point", "coordinates": [-156.646667, 20.866638]}, "record_timestamp": "2018-02-09T11:33:38.603-05:00"},{"datasetid": "us-zip-code-latitude-and-longitude", "recordid": "4f0d11613e4d15484a73a696c4ee44d082a01667", "fields": {"city": "Hana", "zip": "96713", "dst": 0, "geopoint": [20.739217, -156.03893], "longitude": -156.03893, "state": "HI", "latitude": 20.739217, "timezone": -10}, "geometry": {"type": "Point", "coordinates": [-156.03893, 20.739217]}, "record_timestamp": "2018-02-09T11:33:38.603-05:00"},{"datasetid": "us-zip-code-latitude-and-longitude", "recordid": "568424c1ef73ecdc345d058193773e0f34a0413e", "fields": {"city": "Hoolehua", "zip": "96729", "dst": 0, "geopoint": [21.168775, -157.08588], "longitude": -157.08588, "state": "HI", "latitude": 21.168775, "timezone": -10}, "geometry": {"type": "Point", "coordinates": [-157.08588, 21.168775]}, "record_timestamp": "2018-02-09T11:33:38.603-05:00"},{"datasetid": "us-zip-code-latitude-and-longitude", "recordid": "c3fafe926d8f6ff739e6222c7c87ee3330a25409", "fields": {"city": "Lanai City", "zip": "96763", "dst": 0, "geopoint": [20.823607, -156.9274], "longitude": -156.9274, "state": "HI", "latitude": 20.823607, "timezone": -10}, "geometry": {"type": "Point", "coordinates": [-156.9274, 20.823607]}, "record_timestamp": "2018-02-09T11:33:38.603-05:00"},{"datasetid": "us-zip-code-latitude-and-longitude", "recordid": "e1a0aa9568ac2970507bafcc3189e8f860f428a4", "fields": {"city": "Mililani", "zip": "96789", "dst": 0, "geopoint": [21.459206000000002, -158.0116], "longitude": -158.0116, "state": "HI", "latitude": 21.459206000000002, "timezone": -10}, "geometry": {"type": "Point", "coordinates": [-158.0116, 21.459206000000002]}, "record_timestamp": "2018-02-09T11:33:38.603-05:00"},{"datasetid": "us-zip-code-latitude-and-longitude", "recordid": "509ea0bd1bf1a36026bd812574bf945dc9a36b30", "fields": {"city": "Honolulu", "zip": "96812", "dst": 0, "geopoint": [24.859832, -168.021815], "longitude": -168.021815, "state": "HI", "latitude": 24.859832, "timezone": -10}, "geometry": {"type": "Point", "coordinates": [-168.021815, 24.859832]}, "record_timestamp": "2018-02-09T11:33:38.603-05:00"},{"datasetid": "us-zip-code-latitude-and-longitude", "recordid": "340b45e92a6cc47565b11d190da5b7eb4774353c", "fields": {"city": "Honolulu", "zip": "96824", "dst": 0, "geopoint": [24.859832, -168.021815], "longitude": -168.021815, "state": "HI", "latitude": 24.859832, "timezone": -10}, "geometry": {"type": "Point", "coordinates": [-168.021815, 24.859832]}, "record_timestamp": "2018-02-09T11:33:38.603-05:00"},{"datasetid": "us-zip-code-latitude-and-longitude", "recordid": "c715dbb831ee156247a37652e63e96625eb17edb", "fields": {"city": "Ewa Beach", "zip": "96706", "dst": 0, "geopoint": [21.338055, -158.02499], "longitude": -158.02499, "state": "HI", "latitude": 21.338055, "timezone": -10}, "geometry": {"type": "Point", "coordinates": [-158.02499, 21.338055]}, "record_timestamp": "2018-02-09T11:33:38.603-05:00"},{"datasetid": "us-zip-code-latitude-and-longitude", "recordid": "0a07b22ce9356660b26757e89b69ee1e43f0497f", "fields": {"city": "Honokaa", "zip": "96727", "dst": 0, "geopoint": [20.089087, -155.51679], "longitude": -155.51679, "state": "HI", "latitude": 20.089087, "timezone": -10}, "geometry": {"type": "Point", "coordinates": [-155.51679, 20.089087]}, "record_timestamp": "2018-02-09T11:33:38.603-05:00"},{"datasetid": "us-zip-code-latitude-and-longitude", "recordid": "4552fb6cfbbdcc6fed1602aa801f855ba77c7dda", "fields": {"city": "Kealia", "zip": "96751", "dst": 0, "geopoint": [22.111837, -159.31283], "longitude": -159.31283, "state": "HI", "latitude": 22.111837, "timezone": -10}, "geometry": {"type": "Point", "coordinates": [-159.31283, 22.111837]}, "record_timestamp": "2018-02-09T11:33:38.603-05:00"},{"datasetid": "us-zip-code-latitude-and-longitude", "recordid": "b82931c900466c936b17511ad413cbe75d96e4ed", "fields": {"city": "Honolulu", "zip": "96811", "dst": 0, "geopoint": [24.859832, -168.021815], "longitude": -168.021815, "state": "HI", "latitude": 24.859832, "timezone": -10}, "geometry": {"type": "Point", "coordinates": [-168.021815, 24.859832]}, "record_timestamp": "2018-02-09T11:33:38.603-05:00"},{"datasetid": "us-zip-code-latitude-and-longitude", "recordid": "a0abcf807698ce1717f67856537bb9fc6901774b", "fields": {"city": "Honolulu", "zip": "96814", "dst": 0, "geopoint": [21.300167, -157.84777], "longitude": -157.84777, "state": "HI", "latitude": 21.300167, "timezone": -10}, "geometry": {"type": "Point", "coordinates": [-157.84777, 21.300167]}, "record_timestamp": "2018-02-09T11:33:38.603-05:00"},{"datasetid": "us-zip-code-latitude-and-longitude", "recordid": "6c3ba570ca6cbaa981346f08633635fa3aa6ce2b", "fields": {"city": "Honaunau", "zip": "96726", "dst": 0, "geopoint": [19.278298, -155.845329], "longitude": -155.845329, "state": "HI", "latitude": 19.278298, "timezone": -10}, "geometry": {"type": "Point", "coordinates": [-155.845329, 19.278298]}, "record_timestamp": "2018-02-09T11:33:38.603-05:00"},{"datasetid": "us-zip-code-latitude-and-longitude", "recordid": "c4f1ec220cad78cbc77cffa03b46d1257a995a9c", "fields": {"city": "Princeville", "zip": "96722", "dst": 0, "geopoint": [22.223635, -159.49025], "longitude": -159.49025, "state": "HI", "latitude": 22.223635, "timezone": -10}, "geometry": {"type": "Point", "coordinates": [-159.49025, 22.223635]}, "record_timestamp": "2018-02-09T11:33:38.603-05:00"},{"datasetid": "us-zip-code-latitude-and-longitude", "recordid": "888275b9920c07df6985e55cfea48bbec5777485", "fields": {"city": "Holualoa", "zip": "96725", "dst": 0, "geopoint": [19.410727, -155.7478], "longitude": -155.7478, "state": "HI", "latitude": 19.410727, "timezone": -10}, "geometry": {"type": "Point", "coordinates": [-155.7478, 19.410727]}, "record_timestamp": "2018-02-09T11:33:38.603-05:00"},{"datasetid": "us-zip-code-latitude-and-longitude", "recordid": "36fa0e1ccecb555a8de58239235a22f5051ddf44", "fields": {"city": "Volcano", "zip": "96885", "dst": 0, "geopoint": [19.433152, -155.238743], "longitude": -155.238743, "state": "HI", "latitude": 19.433152, "timezone": -10}, "geometry": {"type": "Point", "coordinates": [-155.238743, 19.433152]}, "record_timestamp": "2018-02-09T11:33:38.603-05:00"},{"datasetid": "us-zip-code-latitude-and-longitude", "recordid": "6a8e2170b968d324ae2c9cd2b41de08049e44a86", "fields": {"city": "Honolulu", "zip": "96821", "dst": 0, "geopoint": [21.287967, -157.75456], "longitude": -157.75456, "state": "HI", "latitude": 21.287967, "timezone": -10}, "geometry": {"type": "Point", "coordinates": [-157.75456, 21.287967]}, "record_timestamp": "2018-02-09T11:33:38.603-05:00"},{"datasetid": "us-zip-code-latitude-and-longitude", "recordid": "bac2b144b600d43547a28be8e50ce27225cacbaf", "fields": {"city": "Hickam AFB", "zip": "96853", "dst": 0, "geopoint": [24.859832, -168.021815], "longitude": -168.021815, "state": "HI", "latitude": 24.859832, "timezone": -10}, "geometry": {"type": "Point", "coordinates": [-168.021815, 24.859832]}, "record_timestamp": "2018-02-09T11:33:38.603-05:00"},{"datasetid": "us-zip-code-latitude-and-longitude", "recordid": "533d1f4c315dea2af0b91111b7cd9b6a71422fed", "fields": {"city": "Kaneohe", "zip": "96744", "dst": 0, "geopoint": [21.501854, -157.87926], "longitude": -157.87926, "state": "HI", "latitude": 21.501854, "timezone": -10}, "geometry": {"type": "Point", "coordinates": [-157.87926, 21.501854]}, "record_timestamp": "2018-02-09T11:33:38.603-05:00"},{"datasetid": "us-zip-code-latitude-and-longitude", "recordid": "e23e1c4c0551b374c66af80fe6bbbac73241596f", "fields": {"city": "Hanapepe", "zip": "96716", "dst": 0, "geopoint": [21.917153, -159.59407], "longitude": -159.59407, "state": "HI", "latitude": 21.917153, "timezone": -10}, "geometry": {"type": "Point", "coordinates": [-159.59407, 21.917153]}, "record_timestamp": "2018-02-09T11:33:38.603-05:00"},{"datasetid": "us-zip-code-latitude-and-longitude", "recordid": "274ed6152e8ebd9c86d18d7fd009bdec9da99288", "fields": {"city": "Laupahoehoe", "zip": "96764", "dst": 0, "geopoint": [19.983584, -155.25963], "longitude": -155.25963, "state": "HI", "latitude": 19.983584, "timezone": -10}, "geometry": {"type": "Point", "coordinates": [-155.25963, 19.983584]}, "record_timestamp": "2018-02-09T11:33:38.603-05:00"},{"datasetid": "us-zip-code-latitude-and-longitude", "recordid": "7874c586b7f9ca23cad246597cf4f0297b895c6a", "fields": {"city": "Kaneohe", "zip": "96477", "dst": 0, "geopoint": [21.41345, -157.80575], "longitude": -157.80575, "state": "HI", "latitude": 21.41345, "timezone": -10}, "geometry": {"type": "Point", "coordinates": [-157.80575, 21.41345]}, "record_timestamp": "2018-02-09T11:33:38.603-05:00"},{"datasetid": "us-zip-code-latitude-and-longitude", "recordid": "b964339dee04501b346524357a5127b59b63acff", "fields": {"city": "Kualapuu", "zip": "96757", "dst": 0, "geopoint": [21.156174, -157.03622], "longitude": -157.03622, "state": "HI", "latitude": 21.156174, "timezone": -10}, "geometry": {"type": "Point", "coordinates": [-157.03622, 21.156174]}, "record_timestamp": "2018-02-09T11:33:38.603-05:00"},{"datasetid": "us-zip-code-latitude-and-longitude", "recordid": "b27a52a386c6a94dcef0ad2a6ba396a3ee77cb55", "fields": {"city": "Pepeekeo", "zip": "96783", "dst": 0, "geopoint": [19.843259, -155.10548], "longitude": -155.10548, "state": "HI", "latitude": 19.843259, "timezone": -10}, "geometry": {"type": "Point", "coordinates": [-155.10548, 19.843259]}, "record_timestamp": "2018-02-09T11:33:38.603-05:00"},{"datasetid": "us-zip-code-latitude-and-longitude", "recordid": "2b8138be966cb6c824ef85e98fad4dc989451ec6", "fields": {"city": "Honolulu", "zip": "96816", "dst": 0, "geopoint": [21.284, -157.79925], "longitude": -157.79925, "state": "HI", "latitude": 21.284, "timezone": -10}, "geometry": {"type": "Point", "coordinates": [-157.79925, 21.284]}, "record_timestamp": "2018-02-09T11:33:38.603-05:00"},{"datasetid": "us-zip-code-latitude-and-longitude", "recordid": "8b771b34971e756c6f3574ec5514f7ef8838e87b", "fields": {"city": "Haiku", "zip": "96708", "dst": 0, "geopoint": [20.899634, -156.27315], "longitude": -156.27315, "state": "HI", "latitude": 20.899634, "timezone": -10}, "geometry": {"type": "Point", "coordinates": [-156.27315, 20.899634]}, "record_timestamp": "2018-02-09T11:33:38.603-05:00"},{"datasetid": "us-zip-code-latitude-and-longitude", "recordid": "0b52c1c4c180d434d6600cd575d3b1aee23ab781", "fields": {"city": "Honolulu", "zip": "96838", "dst": 0, "geopoint": [24.859832, -168.021815], "longitude": -168.021815, "state": "HI", "latitude": 24.859832, "timezone": -10}, "geometry": {"type": "Point", "coordinates": [-168.021815, 24.859832]}, "record_timestamp": "2018-02-09T11:33:38.603-05:00"},{"datasetid": "us-zip-code-latitude-and-longitude", "recordid": "1cc4929da860679ba8d3d3ad5fa936993819c6b3", "fields": {"city": "Kailua Kona", "zip": "96745", "dst": 0, "geopoint": [19.593456, -155.438015], "longitude": -155.438015, "state": "HI", "latitude": 19.593456, "timezone": -10}, "geometry": {"type": "Point", "coordinates": [-155.438015, 19.593456]}, "record_timestamp": "2018-02-09T11:33:38.603-05:00"},{"datasetid": "us-zip-code-latitude-and-longitude", "recordid": "ee18c626e3982080d06e27fbbba83b92b940d620", "fields": {"city": "Honolulu", "zip": "96825", "dst": 0, "geopoint": [21.2946, -157.69721], "longitude": -157.69721, "state": "HI", "latitude": 21.2946, "timezone": -10}, "geometry": {"type": "Point", "coordinates": [-157.69721, 21.2946]}, "record_timestamp": "2018-02-09T11:33:38.603-05:00"},{"datasetid": "us-zip-code-latitude-and-longitude", "recordid": "e3cc0005e0799dff450721aac234cee3cb72673c", "fields": {"city": "Honolulu", "zip": "96848", "dst": 0, "geopoint": [24.859832, -168.021815], "longitude": -168.021815, "state": "HI", "latitude": 24.859832, "timezone": -10}, "geometry": {"type": "Point", "coordinates": [-168.021815, 24.859832]}, "record_timestamp": "2018-02-09T11:33:38.603-05:00"},{"datasetid": "us-zip-code-latitude-and-longitude", "recordid": "a4faea38fff4913b92955d7b96ba3ea479657599", "fields": {"city": "Paauhau", "zip": "96775", "dst": 0, "geopoint": [19.593456, -155.438015], "longitude": -155.438015, "state": "HI", "latitude": 19.593456, "timezone": -10}, "geometry": {"type": "Point", "coordinates": [-155.438015, 19.593456]}, "record_timestamp": "2018-02-09T11:33:38.603-05:00"},{"datasetid": "us-zip-code-latitude-and-longitude", "recordid": "09d29349143912870ea49f387ff79a56cba574ad", "fields": {"city": "Makawao", "zip": "96768", "dst": 0, "geopoint": [20.865115, -156.33158], "longitude": -156.33158, "state": "HI", "latitude": 20.865115, "timezone": -10}, "geometry": {"type": "Point", "coordinates": [-156.33158, 20.865115]}, "record_timestamp": "2018-02-09T11:33:38.603-05:00"},{"datasetid": "us-zip-code-latitude-and-longitude", "recordid": "a8db1ce237357f57bc5bc787f8b58910a340403a", "fields": {"city": "Hakalau", "zip": "96710", "dst": 0, "geopoint": [19.857045, -155.15249], "longitude": -155.15249, "state": "HI", "latitude": 19.857045, "timezone": -10}, "geometry": {"type": "Point", "coordinates": [-155.15249, 19.857045]}, "record_timestamp": "2018-02-09T11:33:38.603-05:00"},{"datasetid": "us-zip-code-latitude-and-longitude", "recordid": "1741bc9d1f18f427e4d4487d07350bef5aa82a67", "fields": {"city": "Kahuku", "zip": "96731", "dst": 0, "geopoint": [21.68762, -157.95903], "longitude": -157.95903, "state": "HI", "latitude": 21.68762, "timezone": -10}, "geometry": {"type": "Point", "coordinates": [-157.95903, 21.68762]}, "record_timestamp": "2018-02-09T11:33:38.603-05:00"},{"datasetid": "us-zip-code-latitude-and-longitude", "recordid": "88ca5dfae92893f4cbb5ccfed4de6b31002879c2", "fields": {"city": "Kapolei", "zip": "96707", "dst": 0, "geopoint": [21.345535, -158.08587], "longitude": -158.08587, "state": "HI", "latitude": 21.345535, "timezone": -10}, "geometry": {"type": "Point", "coordinates": [-158.08587, 21.345535]}, "record_timestamp": "2018-02-09T11:33:38.603-05:00"},{"datasetid": "us-zip-code-latitude-and-longitude", "recordid": "41d76df8f3c26e1568e54f5e073a64ea725a1cf6", "fields": {"city": "Captain Cook", "zip": "96704", "dst": 0, "geopoint": [19.307543, -155.88338], "longitude": -155.88338, "state": "HI", "latitude": 19.307543, "timezone": -10}, "geometry": {"type": "Point", "coordinates": [-155.88338, 19.307543]}, "record_timestamp": "2018-02-09T11:33:38.603-05:00"},{"datasetid": "us-zip-code-latitude-and-longitude", "recordid": "426cf69d9a46e64937e84b8a75a4fd9df0387151", "fields": {"city": "Waikoloa", "zip": "96738", "dst": 0, "geopoint": [19.947774, -155.78634], "longitude": -155.78634, "state": "HI", "latitude": 19.947774, "timezone": -10}, "geometry": {"type": "Point", "coordinates": [-155.78634, 19.947774]}, "record_timestamp": "2018-02-09T11:33:38.603-05:00"},{"datasetid": "us-zip-code-latitude-and-longitude", "recordid": "effa7a24a391903c2e4891654b03542d9b9b8d09", "fields": {"city": "Papaikou", "zip": "96781", "dst": 0, "geopoint": [19.800318, -155.10649], "longitude": -155.10649, "state": "HI", "latitude": 19.800318, "timezone": -10}, "geometry": {"type": "Point", "coordinates": [-155.10649, 19.800318]}, "record_timestamp": "2018-02-09T11:33:38.603-05:00"},{"datasetid": "us-zip-code-latitude-and-longitude", "recordid": "08328217046e79fedabc1fe6364588abae4438cc", "fields": {"city": "Honolulu", "zip": "96841", "dst": 0, "geopoint": [24.859832, -168.021815], "longitude": -168.021815, "state": "HI", "latitude": 24.859832, "timezone": -10}, "geometry": {"type": "Point", "coordinates": [-168.021815, 24.859832]}, "record_timestamp": "2018-02-09T11:33:38.603-05:00"},{"datasetid": "us-zip-code-latitude-and-longitude", "recordid": "d685b66b1c80a34b62b7e546c1e0549b0226c89e", "fields": {"city": "Honolulu", "zip": "96819", "dst": 0, "geopoint": [21.3452, -157.88165], "longitude": -157.88165, "state": "HI", "latitude": 21.3452, "timezone": -10}, "geometry": {"type": "Point", "coordinates": [-157.88165, 21.3452]}, "record_timestamp": "2018-02-09T11:33:38.603-05:00"},{"datasetid": "us-zip-code-latitude-and-longitude", "recordid": "f52175f95f45871c7ac13ef07e1050eb9ae4891a", "fields": {"city": "Honolulu", "zip": "96827", "dst": 0, "geopoint": [24.859832, -168.021815], "longitude": -168.021815, "state": "HI", "latitude": 24.859832, "timezone": -10}, "geometry": {"type": "Point", "coordinates": [-168.021815, 24.859832]}, "record_timestamp": "2018-02-09T11:33:38.603-05:00"},{"datasetid": "us-zip-code-latitude-and-longitude", "recordid": "b57b43ac701cc97a589740265d3d850a0ae4e823", "fields": {"city": "Hawi", "zip": "96719", "dst": 0, "geopoint": [20.241109, -155.84459], "longitude": -155.84459, "state": "HI", "latitude": 20.241109, "timezone": -10}, "geometry": {"type": "Point", "coordinates": [-155.84459, 20.241109]}, "record_timestamp": "2018-02-09T11:33:38.603-05:00"},{"datasetid": "us-zip-code-latitude-and-longitude", "recordid": "0e972bffc85cfa042c95fe5f8d630dc5b52d506b", "fields": {"city": "Mountain View", "zip": "96771", "dst": 0, "geopoint": [19.516132, -155.11305], "longitude": -155.11305, "state": "HI", "latitude": 19.516132, "timezone": -10}, "geometry": {"type": "Point", "coordinates": [-155.11305, 19.516132]}, "record_timestamp": "2018-02-09T11:33:38.603-05:00"},{"datasetid": "us-zip-code-latitude-and-longitude", "recordid": "9ee09ca09b3f70e7034a548e3bb70a26e07faadf", "fields": {"city": "Fort Shafter", "zip": "96858", "dst": 0, "geopoint": [24.859832, -168.021815], "longitude": -168.021815, "state": "HI", "latitude": 24.859832, "timezone": -10}, "geometry": {"type": "Point", "coordinates": [-168.021815, 24.859832]}, "record_timestamp": "2018-02-09T11:33:38.603-05:00"},{"datasetid": "us-zip-code-latitude-and-longitude", "recordid": "0d22f8b5ad47246105cdda90241a3d5f2ca96f97", "fields": {"city": "Keauhou", "zip": "96739", "dst": 0, "geopoint": [19.593456, -155.438015], "longitude": -155.438015, "state": "HI", "latitude": 19.593456, "timezone": -10}, "geometry": {"type": "Point", "coordinates": [-155.438015, 19.593456]}, "record_timestamp": "2018-02-09T11:33:38.603-05:00"},{"datasetid": "us-zip-code-latitude-and-longitude", "recordid": "96c674c493a23338dc41008a10c05de279f4e6db", "fields": {"city": "Kahului", "zip": "96732", "dst": 0, "geopoint": [20.883951, -156.46579], "longitude": -156.46579, "state": "HI", "latitude": 20.883951, "timezone": -10}, "geometry": {"type": "Point", "coordinates": [-156.46579, 20.883951]}, "record_timestamp": "2018-02-09T11:33:38.603-05:00"},{"datasetid": "us-zip-code-latitude-and-longitude", "recordid": "812441bb29d16c0b95818740df177e060cad869e", "fields": {"city": "Kahului", "zip": "96733", "dst": 0, "geopoint": [20.866638, -156.646667], "longitude": -156.646667, "state": "HI", "latitude": 20.866638, "timezone": -10}, "geometry": {"type": "Point", "coordinates": [-156.646667, 20.866638]}, "record_timestamp": "2018-02-09T11:33:38.603-05:00"},{"datasetid": "us-zip-code-latitude-and-longitude", "recordid": "9fade0e72e1ae9ffe1831593c7b0d08edb026367", "fields": {"city": "Kaunakakai", "zip": "96748", "dst": 0, "geopoint": [21.111246, -156.9741], "longitude": -156.9741, "state": "HI", "latitude": 21.111246, "timezone": -10}, "geometry": {"type": "Point", "coordinates": [-156.9741, 21.111246]}, "record_timestamp": "2018-02-09T11:33:38.603-05:00"},{"datasetid": "us-zip-code-latitude-and-longitude", "recordid": "2897b308aec5e2d4a02c990c61ea3012be789f38", "fields": {"city": "Kawela Bay", "zip": "96371", "dst": 0, "geopoint": [21.703, -157.996233], "longitude": -157.996233, "state": "HI", "latitude": 21.703, "timezone": -10}, "geometry": {"type": "Point", "coordinates": [-157.996233, 21.703]}, "record_timestamp": "2018-02-09T11:33:38.603-05:00"},{"datasetid": "us-zip-code-latitude-and-longitude", "recordid": "a7629425a1a775207919a3abf111b53649059e60", "fields": {"city": "Volcano", "zip": "96385", "dst": 0, "geopoint": [19.44707, -155.243925], "longitude": -155.243925, "state": "HI", "latitude": 19.44707, "timezone": -10}, "geometry": {"type": "Point", "coordinates": [-155.243925, 19.44707]}, "record_timestamp": "2018-02-09T11:33:38.603-05:00"},{"datasetid": "us-zip-code-latitude-and-longitude", "recordid": "173eb80b7f085cda8d68a6f152dcfc6407bd491d", "fields": {"city": "Kailua", "zip": "96734", "dst": 0, "geopoint": [21.3949, -157.74529], "longitude": -157.74529, "state": "HI", "latitude": 21.3949, "timezone": -10}, "geometry": {"type": "Point", "coordinates": [-157.74529, 21.3949]}, "record_timestamp": "2018-02-09T11:33:38.603-05:00"}]